City,Cloudiness,Country,Date,Humidity,Lat,Lng,Max Temp,Min Temp,Feels Like,Wind Speed
Upernavik,0,GL,1598655460,71,72.79,-56.15,4.64,4.64,-2.3,7.04
Norman Wells,90,CA,1598655397,66,65.28,-126.83,11.0,11.0,6.98,4.1
Rāmgarh,7,IN,1598655037,87,23.63,85.52,22.88,22.88,25.2,2.38
Camocim,14,BR,1598655037,72,-2.9,-40.84,26.1,26.1,24.28,8.33
Umm Kaddadah,71,SD,1598655037,55,13.6,26.69,28.3,28.3,30.31,1.35
Saint-Joseph,75,RE,1598655461,73,-21.37,55.62,21.0,13.33,17.87,2.1
Atuona,64,PF,1598655276,79,-9.8,-139.03,25.48,25.48,22.93,10.03
Høyanger,2,NO,1598655038,92,61.22,6.07,8.89,8.89,8.03,0.45
Margate,35,GB,1598655038,79,51.38,1.39,16.11,11.67,12.55,1.34
Kapaa,20,US,1598655294,70,22.08,-159.32,29.0,28.33,30.42,4.6
Klaksvík,77,FO,1598655038,81,62.23,-6.59,8.0,8.0,3.29,5.1
Yellowknife,90,CA,1598655461,87,62.46,-114.35,12.22,11.67,10.11,2.6
Punta Arenas,14,CL,1598655461,90,-53.15,-70.92,0.0,0.0,-11.92,13.9
Qaanaaq,100,GL,1598655461,88,77.48,-69.36,4.49,4.49,1.59,1.91
Maracaibo,19,VE,1598654897,70,10.63,-71.64,29.56,29.56,31.95,4.48
Srednekolymsk,100,RU,1598655462,91,67.45,153.68,6.24,6.24,4.63,0.66
Mataura,25,NZ,1598655462,72,-46.19,168.86,7.22,7.22,2.19,4.92
Artvin Province,26,TR,1598654849,88,41.17,41.83,21.0,21.0,20.63,5.1
Hermanus,24,ZA,1598655462,83,-34.42,19.23,10.0,10.0,5.91,4.92
Saskylakh,0,RU,1598655316,55,71.92,114.08,14.01,14.01,11.74,1.67
Muros,6,ES,1598655463,86,42.78,-9.06,15.56,15.56,14.19,3.4
Butaritari,99,KI,1598655463,74,3.07,172.79,27.94,27.94,28.28,6.9
Hithadhoo,100,MV,1598655463,65,-0.6,73.08,27.61,27.61,28.85,3.8
Khani,85,GE,1598655463,93,41.96,42.96,19.0,19.0,20.26,2.1
Bethel,1,US,1598655463,54,41.37,-73.41,27.0,23.89,26.57,1.43
Benxi,20,CN,1598655464,100,41.29,123.77,18.0,18.0,19.39,2.0
Mahébourg,75,MU,1598655464,73,-20.41,57.7,22.0,22.0,20.78,5.1
Bengkulu,94,ID,1598655464,83,-3.8,102.27,24.05,24.05,26.66,2.23
Japura,100,ID,1598655464,89,-0.32,102.35,23.04,23.04,26.62,0.96
Ardakān,0,IR,1598655464,15,32.31,54.02,25.0,25.0,20.39,3.1
Mar del Plata,68,AR,1598655464,87,-38.0,-57.56,12.22,10.56,9.24,2.6
Saint-Philippe,75,RE,1598655464,73,-21.36,55.77,21.0,13.33,17.81,2.1
Belmonte,40,BR,1598655465,78,-15.86,-38.88,23.0,23.0,24.04,3.1
Port Macquarie,0,AU,1598655465,64,-31.43,152.92,13.89,13.33,12.59,0.45
La Libertad,75,EC,1598655465,78,-2.23,-80.9,23.0,23.0,22.99,4.6
Khatanga,10,RU,1598655303,55,71.97,102.5,13.05,13.05,10.13,2.34
Tommot,35,RU,1598655465,60,58.96,126.29,10.54,10.54,8.06,1.43
Arraial do Cabo,0,BR,1598655466,78,-22.97,-42.03,22.0,22.0,20.1,6.7
Hasaki,20,JP,1598655466,84,35.73,140.83,30.0,27.0,34.08,2.6
Balkhash,0,KZ,1598655466,59,46.84,74.98,17.67,17.67,12.24,7.65
Busselton,17,AU,1598655456,80,-33.65,115.33,6.67,5.56,0.86,5.5
Puerto Ayora,43,EC,1598655466,83,-0.74,-90.35,18.98,18.98,17.73,4.64
Hilo,40,US,1598655284,51,19.73,-155.09,30.0,25.0,27.25,3.6
Goderich,86,CA,1598655467,74,43.75,-81.72,23.89,22.78,24.62,2.41
Paamiut,100,GL,1598655215,89,61.99,-49.67,8.66,8.66,5.75,3.14
Dikson,80,RU,1598655467,81,73.51,80.55,9.14,9.14,6.26,2.82
Karema,9,TZ,1598655467,62,-6.82,30.44,22.85,22.85,23.6,1.33
Rikitea,0,PF,1598655467,66,-23.12,-134.97,20.6,20.6,20.04,2.61
Bredasdorp,2,ZA,1598655468,81,-34.53,20.04,9.0,9.0,5.19,4.1
Port Augusta,0,AU,1598655468,66,-32.5,137.77,15.56,12.0,12.43,2.6
Albany,66,US,1598655310,76,42.6,-73.97,24.44,20.56,24.05,1.4
Mabaruma,43,GY,1598655468,86,8.2,-59.78,25.21,25.21,29.26,1.47
Katsuura,20,JP,1598655468,66,35.13,140.3,31.0,30.56,32.67,5.1
Ribeira Grande,14,PT,1598655346,93,38.52,-28.7,23.61,23.61,25.12,4.87
Khilok,100,RU,1598655468,93,51.37,110.47,11.69,11.69,11.11,1.13
Bogorodskoye,93,RU,1598655468,98,56.55,37.88,11.32,11.32,9.54,3.01
Ulladulla,0,AU,1598655469,58,-35.35,150.47,12.0,3.33,1.45,5.1
Mandurah,35,AU,1598655469,67,-32.55,115.7,13.33,13.33,11.45,1.79
New Norfolk,100,AU,1598655299,63,-42.78,147.06,12.78,10.0,9.26,1.79
Arroyos y Esteros,20,PY,1598655469,31,-25.07,-57.1,32.0,32.0,30.68,3.1
Bluff,90,NZ,1598655469,72,-46.6,168.33,7.22,7.22,2.19,4.92
Rabo de Peixe,20,PT,1598655469,83,37.8,-25.58,24.0,24.0,25.28,4.1
Laguna,1,US,1598655469,29,38.42,-121.42,36.11,33.0,34.5,2.1
Ushuaia,75,AR,1598655470,94,-54.8,-68.3,1.0,1.0,-6.7,8.2
Umba,52,RU,1598655470,78,66.69,34.34,9.34,9.34,7.05,1.87
Severo-Kuril'sk,55,RU,1598655470,77,50.68,156.12,11.55,11.55,8.21,3.99
Carnarvon,2,AU,1598655320,100,-24.87,113.63,14.0,14.0,12.74,3.6
Mossamedes,92,AO,1598655470,81,-15.2,12.15,15.23,15.23,13.75,2.99
Qaqortoq,100,GL,1598655470,69,60.72,-46.03,16.0,16.0,6.75,13.4
Sawtell,0,AU,1598655471,59,-30.38,153.1,16.0,13.89,12.46,3.1
Colomi,40,BO,1598655471,27,-17.35,-65.87,25.0,25.0,21.99,2.6
Huarmey,8,PE,1598655339,78,-10.07,-78.15,17.75,17.75,15.64,4.75
Jalu,0,LY,1598655471,60,29.03,21.55,26.03,26.03,25.25,4.89
Cidreira,73,BR,1598655471,77,-30.18,-50.21,18.43,18.43,17.16,3.78
Lorengau,100,PG,1598655311,77,-2.02,147.27,28.63,28.63,30.1,6.37
Ol'ga,100,RU,1598655471,93,43.74,135.29,17.55,17.55,16.07,5.18
Iqaluit,75,CA,1598655472,57,63.75,-68.51,11.0,10.56,6.9,3.28
Cabo San Lucas,90,MX,1598655472,88,22.89,-109.91,26.67,25.0,30.41,1.5
Omsukchan,100,RU,1598655472,83,62.53,155.8,4.87,4.87,0.45,3.98
Avarua,26,CK,1598655472,69,-21.21,-159.78,25.0,25.0,24.62,5.1
Smithers,40,CA,1598655472,47,54.78,-127.17,15.0,15.0,12.94,1.0
Deputatsky,88,RU,1598655411,78,69.3,139.9,4.49,4.49,1.52,1.62
Barrow,90,US,1598655472,81,71.29,-156.79,4.0,4.0,-2.17,6.2
San Patricio,90,MX,1598655435,70,19.22,-104.7,30.0,30.0,32.9,4.1
Port Hardy,75,CA,1598655473,72,50.7,-127.42,16.0,16.0,12.32,5.7
Tiznit Province,0,MA,1598655473,49,29.58,-9.5,24.17,24.17,23.35,2.4
Shelburne,20,CA,1598655473,68,44.08,-80.2,21.0,20.0,20.85,1.5
Tabriz,0,IR,1598655473,38,38.08,46.29,23.0,23.0,21.04,2.1
Toulouse,100,FR,1598655422,77,43.6,1.44,17.0,15.0,13.48,5.1
Thompson,75,CA,1598655473,77,55.74,-97.86,16.0,16.0,14.09,3.6
Pacifica,20,US,1598655474,63,37.61,-122.49,23.89,14.0,13.27,7.2
Bambous Virieux,75,MU,1598655287,73,-20.34,57.76,22.0,20.56,19.83,5.1
Atambua,33,ID,1598655474,64,-9.11,124.89,22.32,22.32,22.72,1.82
Sambava,50,MG,1598655249,82,-14.27,50.17,20.31,20.31,19.42,4.75
Port Alfred,0,ZA,1598655246,69,-33.59,26.89,14.01,14.01,10.67,4.25
Los Llanos de Aridane,7,ES,1598655474,83,28.66,-17.92,24.44,24.0,23.51,7.2
Clyde River,20,CA,1598655474,66,70.47,-68.59,10.0,10.0,5.1,5.1
Dickinson,14,US,1598655474,78,29.46,-95.05,33.33,31.67,39.76,1.79
George Town,20,MY,1598655475,88,5.41,100.34,27.0,25.0,30.73,1.0
Jumla,100,NP,1598655475,72,29.27,82.18,16.78,16.78,17.2,0.15
Provideniya,75,RU,1598655475,81,64.38,-173.3,10.0,10.0,7.88,2.0
Marsá Maţrūḩ,0,EG,1598655475,65,31.35,27.25,26.0,26.0,27.37,2.6
Port Hedland,15,AU,1598655475,59,-20.32,118.57,17.0,17.0,14.94,2.6
Roald,1,NO,1598655335,76,62.58,6.13,13.0,11.67,6.63,7.7
Hong Kong,71,HK,1598655363,78,22.29,114.16,27.78,23.33,30.3,1.57
Yambio,71,SS,1598655476,94,4.57,28.4,19.79,19.79,22.18,1.07
Touros,9,BR,1598655185,83,-5.2,-35.46,25.0,25.0,27.83,2.6
Lagoa,0,PT,1598655476,94,39.05,-27.98,23.42,23.42,23.58,6.79
Vaini,75,TO,1598655476,74,-21.2,-175.2,26.0,26.0,26.96,4.6
Pangnirtung,20,CA,1598655216,81,66.15,-65.71,9.0,9.0,6.24,2.6
Camacha,40,PT,1598655477,83,33.08,-16.33,23.0,23.0,22.33,6.2
Narsaq,100,GL,1598655477,57,60.92,-46.05,16.0,16.0,6.03,13.4
Tasiilaq,100,GL,1598655477,81,65.61,-37.64,6.0,6.0,3.82,0.96
Tiksi,44,RU,1598655323,80,71.69,128.87,6.77,6.77,1.65,5.31
Gobabis,0,NA,1598655307,34,-22.45,18.97,11.65,11.65,5.85,4.76
Senanga,0,ZM,1598655477,52,-16.12,23.27,19.58,19.58,18.25,1.76
Nikolskoye,99,RU,1598655477,87,59.7,30.79,13.33,12.22,12.39,1.0
Saint George,1,US,1598655416,10,37.1,-113.58,39.0,37.78,31.32,7.7
Turukhansk,85,RU,1598655249,89,65.82,87.98,11.4,11.4,10.62,1.04
Ostrovnoy,69,RU,1598655478,64,68.05,39.51,9.33,9.33,3.97,5.48
Chui,41,UY,1598655333,98,-33.7,-53.46,13.53,13.53,12.98,2.22
Buala,52,SB,1598655478,72,-8.14,159.59,28.8,28.8,32.79,1.98
Sumbe,98,AO,1598655478,83,-11.21,13.84,20.6,20.6,21.78,2.07
Acapulco de Juárez,40,MX,1598655463,74,16.86,-99.89,30.0,30.0,32.76,5.1
Ulaanbaatar,20,MN,1598655478,93,47.91,106.88,7.0,7.0,5.37,1.0
Kaitangata,63,NZ,1598655479,50,-46.28,169.85,12.78,12.78,6.83,6.26
Hobart,75,AU,1598655365,62,-42.88,147.33,12.78,12.0,6.61,7.2
Gijang,75,KR,1598655479,88,35.24,129.21,26.0,26.0,30.68,1.5
East London,46,ZA,1598655479,67,-33.02,27.91,15.73,15.73,14.69,1.4
Tautira,20,PF,1598655479,51,-17.73,-149.15,29.0,29.0,30.25,2.1
Banda Aceh,100,ID,1598655479,76,5.56,95.32,26.64,26.64,30.05,1.88
Port-Gentil,90,GA,1598655480,88,-0.72,8.78,25.0,25.0,25.73,6.34
Vigrestad,58,NO,1598655254,89,58.57,5.7,13.89,12.78,10.74,4.4
Alice Springs,0,AU,1598655480,27,-23.7,133.88,10.0,10.0,3.53,5.09
Longyearbyen,90,SJ,1598655480,92,78.22,15.64,1.0,1.0,-2.06,1.5
Palafrugell,90,ES,1598655480,50,41.92,3.16,19.44,18.33,13.21,7.51
Bilibino,100,RU,1598655480,59,68.05,166.44,8.71,8.71,5.67,1.76
Resende,0,BR,1598655481,76,-22.47,-44.45,18.47,18.47,19.64,0.21
Castro,0,BR,1598655481,79,-24.79,-50.01,15.3,15.3,15.12,1.0
Tonantins,78,BR,1598655481,76,-2.87,-67.8,26.92,26.92,31.02,1.1
Chupaca,37,PE,1598655481,40,-12.07,-75.28,15.24,15.24,11.52,2.86
Ilulissat,87,GL,1598655481,45,69.22,-51.1,8.0,8.0,1.25,6.2
Olafsvik,100,IS,1598655428,85,64.89,-23.71,11.03,11.03,6.03,6.69
Kavieng,98,PG,1598655457,78,-2.57,150.8,28.19,28.19,29.96,5.76
Merauke,100,ID,1598655465,78,-8.47,140.33,25.84,25.84,25.42,7.09
Talnakh,49,RU,1598655482,87,69.49,88.4,9.0,9.0,6.89,2.0
San Andrés,75,CO,1598655314,94,12.58,-81.7,26.0,26.0,30.93,2.1
Bocanda,41,CI,1598655482,95,7.06,-4.5,21.82,21.82,23.92,2.96
São João da Barra,1,BR,1598655482,86,-21.64,-41.05,22.45,22.45,21.79,6.22
Grindavik,90,IS,1598655482,100,63.84,-22.43,9.0,9.0,4.79,5.7
Cherskiy,85,RU,1598655483,80,68.75,161.3,7.59,7.59,4.37,2.82
Cape Town,75,ZA,1598655483,81,-33.93,18.42,11.11,9.44,8.05,2.1
Constitución,100,CL,1598655483,91,-35.33,-72.42,10.1,10.1,5.7,5.87
College,75,US,1598655483,76,64.86,-147.8,15.0,11.67,11.84,2.1
Pacific Grove,20,US,1598655483,56,36.62,-121.92,22.22,19.0,17.38,5.7
Podgorica,0,ME,1598655483,60,42.44,19.26,24.0,24.0,23.72,3.1
Zeya,74,RU,1598655484,67,53.75,127.27,11.82,11.82,9.17,2.44
Charters Towers,1,AU,1598655484,49,-20.1,146.27,18.86,18.86,12.15,8.89
Zambezi,71,ZM,1598655484,51,-13.54,23.1,20.98,20.98,20.21,1.34
Suntar,100,RU,1598655392,58,62.14,117.63,12.19,12.19,8.68,3.18
Gorom-Gorom,55,BF,1598655484,59,14.44,-0.24,29.1,29.1,28.66,6.09
Halifax,14,CA,1598655484,47,44.65,-63.57,20.56,18.89,18.59,0.89
Pevek,67,RU,1598655484,86,69.7,170.31,4.88,4.88,2.67,0.95
Ancud,1,CL,1598655485,67,-41.87,-73.82,6.67,6.0,0.84,5.1
Faanui,9,PF,1598655485,80,-16.48,-151.75,24.54,24.54,22.32,9.05
Quatre Cocos,75,MU,1598655485,73,-20.21,57.76,22.0,20.56,19.73,5.1
Hualmay,18,PE,1598655485,80,-11.1,-77.61,17.26,17.26,14.78,5.24
Payakumbuh,95,ID,1598655485,89,-0.22,100.63,20.93,20.93,23.62,0.81
Jamestown,75,US,1598655396,83,42.1,-79.24,23.89,23.0,25.43,2.6
Ponta Delgada,20,PT,1598655485,83,37.73,-25.67,24.0,24.0,25.28,4.1
Kahului,40,US,1598655216,36,20.89,-156.47,34.0,26.67,23.21,10.8
Safidon,0,IN,1598655486,77,29.42,76.67,26.66,26.66,29.55,2.81
Las Tunas,20,CU,1598655268,62,20.96,-76.95,32.0,32.0,34.47,4.6
Payson,1,US,1598655302,18,40.04,-111.73,35.56,33.0,29.53,5.93
Ponta do Sol,20,PT,1598655486,64,32.67,-17.1,24.0,19.44,17.58,7.7
Port Lincoln,0,AU,1598655486,46,-34.73,135.87,15.25,15.25,7.69,8.84
Taltal,26,CL,1598655486,66,-25.4,-70.48,14.3,14.3,12.37,2.1
Kalmunai,66,LK,1598655487,78,7.42,81.82,25.83,25.83,29.19,1.68
Torbay,75,CA,1598655487,67,47.67,-52.73,16.11,15.0,9.31,8.2
Jiamusi,100,CN,1598655487,83,46.83,130.35,15.01,15.01,11.59,5.84
Qinzhou,21,CN,1598655487,83,21.95,108.62,27.03,27.03,32.4,0.54
Gushikawa,1,JP,1598655479,94,26.35,127.87,28.0,27.78,33.03,3.6
Tagusao,59,PH,1598655487,78,9.19,117.81,27.27,27.27,31.47,1.56
Honiara,75,SB,1598655234,74,-9.43,159.95,29.0,29.0,34.05,1.0
Ginda,0,IN,1598655488,81,30.69,78.49,15.87,15.87,15.95,1.04
Pisco,20,PE,1598655488,77,-13.7,-76.22,18.0,17.22,13.75,7.2
Port Elizabeth,1,ZA,1598655488,87,-33.92,25.57,12.0,12.0,9.85,3.1
Lata,74,PT,1598655397,77,40.16,-8.33,17.22,15.56,16.94,0.89
Voh,99,NC,1598655488,75,-20.97,164.7,22.47,22.47,22.17,4.31
Spirovo,83,RU,1598655489,96,57.42,34.98,10.96,10.96,9.16,2.77
Kovernino,78,RU,1598655489,92,57.13,43.81,13.86,13.86,13.55,1.58
Miramar,1,US,1598655489,59,25.99,-80.23,32.22,30.56,34.04,3.1
Ahipara,2,NZ,1598655489,65,-35.17,173.17,16.26,16.26,13.89,3.32
Saint-Augustin,48,CA,1598655489,71,51.23,-58.65,11.89,11.89,7.07,5.82
Faya,7,SA,1598655490,88,18.39,42.45,21.0,19.0,22.3,0.68
Sisimiut,98,GL,1598655490,52,66.94,-53.67,10.05,10.05,5.16,4.28
Kirakira,100,SB,1598655490,76,-10.45,161.92,28.06,28.06,31.2,3.35
San Miguel,68,SV,1598655220,66,13.48,-88.18,33.0,33.0,38.45,2.1
Vicuña,40,CL,1598655490,66,-30.03,-70.71,13.0,13.0,9.74,3.6
Chāndūr Bāzār,100,IN,1598655490,95,21.24,77.75,22.82,22.82,23.09,6.31
São Filipe,89,CV,1598655491,81,14.9,-24.5,26.89,26.89,30.78,2.21
Aripuanã,67,BR,1598655491,51,-9.17,-60.63,29.65,29.65,31.23,1.99
Stephenville Crossing,75,CA,1598655491,67,48.5,-58.43,14.0,13.33,6.71,9.3
Yurga,0,RU,1598655491,89,55.72,84.89,10.04,10.04,8.47,1.68
Ogdensburg,1,US,1598655492,88,44.69,-75.49,21.11,19.0,21.77,1.21
Yong’an,1,CN,1598655492,70,39.7,113.69,19.73,19.73,19.75,1.82
Mgandu,41,TZ,1598655492,72,-5.95,34.13,15.07,15.07,12.63,3.57
Kushmurun,82,KZ,1598655492,55,52.45,64.63,19.83,19.83,18.3,2.45
Bud,1,US,1598655492,74,39.45,-86.18,28.89,28.0,30.99,4.1
Korla,88,CN,1598655493,56,41.76,86.15,17.34,17.34,13.17,5.46
Carutapera,92,BR,1598655493,89,-1.2,-46.02,24.69,24.69,28.24,2.23
Paciran,6,ID,1598655493,84,-6.88,112.38,24.3,24.3,26.28,3.45
Teacapan,98,MX,1598655493,83,22.55,-105.75,28.03,28.03,31.31,4.37
Dābhol,100,IN,1598655493,92,17.6,73.17,24.04,24.04,27.92,1.68
Mount Gambier,0,AU,1598655494,81,-37.83,140.77,8.0,8.0,2.52,6.2
Flin Flon,75,CA,1598655350,82,54.77,-101.86,15.0,15.0,13.78,2.6
Aykhal,75,RU,1598655494,42,66.0,111.5,9.0,9.0,3.79,4.0
Murakami,75,JP,1598655494,89,38.23,139.48,29.0,29.0,34.56,3.1
Esperance,75,AU,1598655494,81,-33.87,121.9,10.0,10.0,3.89,7.7
Kumul,70,CN,1598655494,41,42.8,93.45,18.63,18.63,12.68,6.92
Dunedin,21,NZ,1598655495,66,-45.87,170.5,10.33,10.33,7.76,1.86
Isiro,64,CD,1598655495,98,2.77,27.62,19.4,19.4,22.25,0.59
Pingshan,65,CN,1598655495,81,22.99,114.71,26.83,26.83,31.78,0.65
Atyrau,46,KZ,1598655496,34,47.12,51.88,18.0,18.0,13.51,4.0
Leningradskiy,100,RU,1598655496,93,69.38,178.42,3.1,3.1,-1.04,3.55
Vao,94,NC,1598655496,81,-22.67,167.48,20.5,20.5,16.95,8.54
Pontianak,53,ID,1598655496,95,-0.03,109.33,23.77,23.77,27.8,1.67
Codrington,0,AU,1598655496,72,-38.27,141.97,10.08,10.08,3.71,7.57
Miracema do Tocantins,2,BR,1598655496,26,-9.56,-48.4,26.82,26.82,25.49,0.5
Pyatovskiy,0,RU,1598655497,93,54.69,36.06,13.0,13.0,11.49,3.0
Tuatapere,50,NZ,1598655497,72,-46.13,167.68,7.22,7.22,2.19,4.92
Caravelas,0,BR,1598655497,83,-17.71,-39.25,21.48,21.48,23.17,1.87
Dallas,20,US,1598655377,31,32.77,-96.78,40.56,38.89,41.35,2.1
Meulaboh,98,ID,1598655497,88,4.14,96.13,24.22,24.22,27.5,2.1
San Rafael del Sur,71,NI,1598655497,84,11.85,-86.44,27.44,27.44,33.33,0.31
Pinerolo,87,IT,1598655498,89,44.88,7.35,18.89,16.67,19.75,0.45
Poum,79,NC,1598655249,81,-20.23,164.02,22.77,22.77,19.55,9.43
Rio Grande,40,BR,1598655203,100,-32.03,-52.1,17.0,16.67,17.32,2.6
Dargaville,3,NZ,1598655498,61,-35.93,173.88,16.6,16.6,14.78,2.3
Moroni,8,KM,1598655498,73,-11.7,43.26,23.36,23.36,25.11,1.64
Tuktoyaktuk,20,CA,1598655498,62,69.45,-133.04,11.0,11.0,6.11,5.1
Quang Ngai,60,VN,1598655499,79,15.12,108.8,25.09,25.09,27.83,2.2
Kisangani,94,CD,1598655499,96,0.52,25.2,21.54,21.54,25.17,0.7
Saint Paul Harbor,1,US,1598655460,48,57.79,-152.41,18.0,18.0,14.04,4.6
Airai,30,TL,1598655499,75,-8.93,125.41,16.94,16.94,16.12,2.26
Benguela,95,AO,1598655499,82,-12.58,13.41,19.83,19.83,20.72,1.94
Amazar,100,RU,1598655499,73,53.86,120.88,10.73,10.73,9.09,1.06
Mozarlândia,98,BR,1598655500,19,-14.74,-50.57,26.09,26.09,23.86,0.49
Broome,90,US,1598655500,73,42.25,-75.83,23.33,20.0,21.99,2.6
Gigmoto,100,PH,1598655500,79,13.78,124.39,27.57,27.57,32.11,1.49
Baruun-Urt,39,MN,1598655500,94,46.68,113.28,13.07,13.07,11.17,3.66
Okhotsk,62,RU,1598655438,66,59.38,143.3,12.09,12.09,8.83,3.32
Urengoy,96,RU,1598655500,66,65.97,78.37,14.63,14.63,13.39,1.23
Løding,75,NO,1598655501,81,67.3,14.75,9.0,8.33,5.64,2.6
Honningsvåg,87,NO,1598655501,69,70.98,25.97,7.94,7.94,3.27,4.43
Onega,95,RU,1598655501,71,63.91,38.14,10.3,10.3,6.37,4.08
North Bend,1,US,1598655225,68,43.41,-124.22,27.78,19.0,14.77,13.4
Gurupá,92,BR,1598655501,92,-1.41,-51.64,24.7,24.7,28.62,2.14
Sivaki,100,RU,1598655501,64,52.63,126.75,11.36,11.36,6.69,5.01
Oliva,57,ES,1598655502,7,38.92,-0.12,26.67,25.56,22.36,0.89
Dongsheng,75,CN,1598655502,65,39.82,109.98,19.16,19.16,17.8,3.01
Mitú,96,CO,1598655502,87,1.2,-70.17,24.75,24.75,29.52,0.23
Chokurdakh,100,RU,1598655503,82,70.63,147.92,4.66,4.66,0.25,3.87
Alakurtti,99,RU,1598655504,86,66.97,30.35,7.22,7.22,5.48,0.89
Manaquiri,40,BR,1598655504,78,-3.32,-60.35,30.0,26.0,32.81,1.0
Rudnogorsk,76,RU,1598655504,96,57.26,103.75,11.7,11.7,11.71,0.48
Russell,20,US,1598655505,88,32.35,-85.2,27.0,26.0,29.55,3.88
Santa Maria,29,BR,1598655505,91,-29.68,-53.81,19.53,19.53,20.83,2.15
Pyaozerskiy,86,RU,1598655505,83,65.83,31.17,9.12,9.12,6.81,2.11
Inta,18,RU,1598655505,91,66.03,60.17,5.62,5.62,2.85,2.14
Santa Cruz de Barahona,9,DO,1598655505,80,18.21,-71.1,28.5,28.5,31.97,3.95
Hérouville-Saint-Clair,82,FR,1598655506,93,49.21,-0.31,13.0,12.0,10.15,4.1
Broken Hill,0,AU,1598655446,37,-31.95,141.43,12.0,12.0,7.19,3.6
Yulara,0,AU,1598655506,25,-25.24,130.99,12.0,12.0,6.29,4.1
Orange,20,US,1598655507,54,33.7,-117.77,31.67,25.0,30.14,3.1
Romny,29,UA,1598655507,95,50.75,33.47,13.03,13.03,11.42,3.29
Coquimbo,40,CL,1598655507,66,-29.95,-71.34,13.0,13.0,9.74,3.6
Sørland,75,NO,1598655507,81,67.67,12.69,8.0,8.0,5.39,2.1
Mumford,73,GH,1598655256,92,5.26,-0.76,23.31,23.31,25.03,4.21
Hambantota,100,LK,1598655508,79,6.12,81.12,26.56,26.56,26.49,7.29
Boende,100,CD,1598655508,88,-0.22,20.87,21.59,21.59,24.43,0.89
Saint-Pierre,75,RE,1598655508,73,-21.34,55.48,21.0,13.33,18.51,2.1
Riverton,1,US,1598655508,25,40.52,-111.94,32.78,30.56,28.65,4.1
Hadrut,32,AZ,1598655508,57,39.52,47.03,20.95,20.95,21.29,0.45
Inuvik,20,CA,1598655509,43,68.35,-133.72,13.0,13.0,8.6,3.6
Nové Město nad Metují,100,CZ,1598655509,93,50.34,16.15,17.22,15.56,17.93,0.43
Kismayo,33,SO,1598655509,79,-0.36,42.55,25.3,25.3,24.4,7.55
Ortaköy,0,TR,1598655509,34,38.74,34.04,20.0,20.0,16.1,3.6
Vanimo,100,PG,1598655510,86,-2.67,141.3,26.31,26.31,27.74,6.08
Ban Nahin,95,LA,1598655510,91,18.24,104.21,24.22,24.22,28.63,0.92
Palu,6,ID,1598655510,77,-0.89,119.87,24.95,24.95,28.15,1.15
Otukpo,100,NG,1598655510,99,7.19,8.13,21.62,21.62,24.17,2.66
Nome,90,US,1598655407,82,64.5,-165.41,14.44,13.0,12.67,1.5
Vigeland,100,NO,1598655511,82,58.08,7.3,13.89,13.33,10.72,4.47
Taoudenni,0,ML,1598655511,9,22.68,-3.98,36.96,36.96,31.4,4.87
Valdez,99,EC,1598655511,85,1.25,-78.98,24.98,24.98,26.44,4.84
Mehamn,57,NO,1598655511,72,71.04,27.85,6.26,6.26,1.38,4.48
Sinnamary,39,GF,1598655512,83,5.38,-52.95,26.6,26.6,30.52,2.27
Mount Isa,0,AU,1598655512,26,-20.73,139.5,21.0,21.0,15.14,5.7
Dolores,57,AR,1598655371,96,-36.31,-57.68,11.3,11.3,9.29,3.21
Kargopol',100,RU,1598655506,97,61.51,38.95,11.32,11.32,9.46,3.07
Ariquemes,72,BR,1598655512,43,-9.91,-63.04,30.38,30.38,32.16,0.51
Dospat,0,BG,1598655513,64,41.65,24.17,14.53,14.53,13.59,0.61
Ust-Kuyga,35,RU,1598655514,60,70.02,135.6,8.98,8.98,6.29,1.36
Kiama,0,AU,1598655514,63,-34.68,150.87,14.44,11.67,10.77,2.07
Mujiayingzi,91,CN,1598655514,87,42.12,118.78,16.21,16.21,17.1,0.55
Yamada,38,JP,1598655515,71,39.47,141.95,29.76,29.76,35.06,0.68
Berezanka,0,UA,1598655515,57,46.85,31.39,18.68,18.68,17.69,1.48
Manokwari,100,ID,1598655453,76,-0.87,134.08,26.48,26.48,28.63,3.57
Te Anau,55,NZ,1598655515,76,-45.42,167.72,7.35,7.35,2.92,4.29
Fort Nelson,75,CA,1598655515,82,58.81,-122.7,13.0,13.0,11.58,2.1
Newtownards,42,GB,1598655516,81,54.59,-5.69,12.22,9.0,7.63,4.1
Plérin,48,FR,1598655516,11,48.54,-2.78,12.78,11.11,6.46,3.13
Oranjemund,9,NA,1598655516,85,-28.55,16.43,12.56,12.56,10.02,3.74
Guerrero Negro,0,MX,1598655287,53,27.98,-114.06,29.34,29.34,27.12,7.63
Isiolo,16,KE,1598655516,65,0.35,37.58,19.48,19.48,14.8,7.89
Filingué,60,NE,1598655517,65,14.35,3.32,28.58,28.58,29.17,5.39
Padang,100,ID,1598655517,76,-0.95,100.35,25.04,25.04,27.88,1.57
Yokadouma,100,CM,1598655517,95,3.52,15.05,20.84,20.84,23.84,1.0
Mayo,90,US,1598655517,78,38.89,-76.51,27.78,24.44,26.74,4.6
Husavik,75,IS,1598655421,87,66.04,-17.34,9.0,9.0,7.59,1.0
Patiya,39,BD,1598655518,94,22.29,91.98,23.99,23.99,27.75,2.09
Fortuna,1,US,1598655518,72,40.6,-124.16,18.33,17.0,12.32,8.7
Bonavista,51,CA,1598655518,79,48.65,-53.11,14.44,14.44,11.91,4.02
Flinders,0,AU,1598655518,77,-34.58,150.86,14.44,11.67,11.64,1.34
Batouri,100,CM,1598655518,96,4.43,14.37,20.35,20.35,22.48,2.03
São Mateus,0,BR,1598655519,90,-18.72,-39.86,21.22,21.22,23.41,1.82
Rawson,58,AR,1598655457,50,-43.3,-65.1,7.76,7.76,-0.33,8.33
Pringsewu,45,ID,1598655490,93,-5.36,104.97,22.46,22.46,25.89,1.27
Sijunjung,98,ID,1598655519,87,-0.69,100.95,22.12,22.12,25.38,0.52
Barentu,97,ER,1598655519,87,15.11,37.59,21.78,21.78,23.43,2.6
Chernyshevskiy,100,RU,1598655519,69,63.01,112.47,11.24,11.24,9.56,1.02
Chicama,8,PE,1598655520,76,-7.84,-79.15,18.12,18.12,16.52,4.01
São Gabriel da Cachoeira,45,BR,1598655520,89,-0.13,-67.09,25.24,25.24,30.22,0.61
Nanortalik,100,GL,1598655520,75,60.14,-45.24,9.93,9.93,2.09,9.8
Urucará,100,BR,1598655520,93,-2.54,-57.76,24.12,24.12,28.62,0.99
Bandarbeyla,24,SO,1598655520,77,9.49,50.81,24.39,24.39,19.36,12.52
Vila do Maio,75,CV,1598655521,88,15.13,-23.22,27.0,27.0,31.5,2.6
Khandyga,0,RU,1598655521,44,62.67,135.6,11.79,11.79,9.54,0.36
Abu Samrah,0,SY,1598655522,67,35.3,37.18,22.81,22.81,23.44,2.13
Oddur,5,SO,1598655522,68,4.12,43.89,22.89,22.89,19.19,8.49
Cavalcante,96,BR,1598655522,33,-13.8,-47.46,22.34,22.34,20.06,1.73
El Ocotito,40,MX,1598655522,74,17.25,-99.57,30.0,30.0,32.76,5.1
Gimli,16,CA,1598655522,99,50.63,-96.99,21.67,18.89,18.08,7.47
Palamós,89,ES,1598655523,50,41.85,3.13,19.44,18.33,12.98,7.58
Sobolevo,0,RU,1598655356,94,54.43,31.9,9.09,9.09,6.81,2.66
Labuhan,9,ID,1598655523,84,-6.88,112.21,24.41,24.41,26.04,4.03
San Miguel de Tucumán,1,AR,1598655468,40,-26.82,-65.22,23.0,23.0,21.23,2.1
Marsh Harbour,71,BS,1598655523,73,26.54,-77.06,29.23,29.23,33.71,1.81
Pitkyaranta,24,RU,1598655523,87,61.57,31.48,10.2,10.2,7.26,3.58
Soe,17,ID,1598655523,64,-9.86,124.28,19.55,19.55,18.56,2.54
Tam Ky,20,VN,1598655523,83,15.57,108.48,27.0,27.0,32.03,1.0
San Quintín,36,MX,1598655524,63,30.48,-115.95,25.16,25.16,23.9,5.56
General Pico,98,AR,1598655335,55,-35.66,-63.76,14.45,14.45,11.4,2.9
Ambon City,40,ID,1598655524,88,-3.7,128.18,26.11,26.0,30.01,2.6
Siguiri,100,GN,1598655524,96,11.67,-9.5,21.61,21.61,24.44,1.9
Visnes,99,NO,1598655524,71,59.36,5.22,14.44,12.78,12.01,2.1
Lüderitz,0,NA,1598655524,80,-26.65,15.16,12.67,12.67,10.9,2.33
Barra de Tecoanapa,11,MX,1598655525,66,16.52,-98.75,29.21,29.21,31.19,4.03
Yārāda,75,IN,1598655525,88,17.65,83.27,28.0,28.0,34.24,1.0
Llangefni,94,GB,1598655525,76,53.26,-4.31,13.89,13.0,8.78,6.2
Vestmanna,56,FO,1598655526,81,62.16,-7.17,8.0,8.0,5.17,2.42
Lebu,92,CL,1598655526,85,-37.62,-73.65,7.45,7.45,-0.1,9.2
Shakawe,29,BW,1598655251,29,-18.37,21.85,21.32,21.32,18.01,2.47
Bilma,40,NE,1598655526,33,18.69,12.92,33.62,33.62,32.9,3.38
Pundaguitan,100,PH,1598655526,78,6.37,126.17,28.35,28.35,30.89,4.8
Mitsamiouli,15,KM,1598655526,78,-11.38,43.28,24.03,24.03,25.06,3.77
Lar,22,IN,1598655527,85,26.2,83.97,25.43,25.43,27.97,3.64
Fort Morgan,40,US,1598655527,36,40.25,-103.8,25.0,25.0,22.58,3.1
Fonte Boa,99,BR,1598655527,95,-2.5,-66.27,23.05,23.05,26.64,1.74
Bara,100,NG,1598655527,91,10.37,10.73,22.97,22.97,26.02,1.93
Alofi,97,NU,1598655527,61,-19.06,-169.92,26.0,26.0,22.66,8.7
Mweka,41,CD,1598655528,82,-4.85,21.57,22.5,22.5,24.97,1.26
Tazovsky,0,RU,1598655528,87,67.47,78.7,10.52,10.52,9.11,1.51
North Platte,20,US,1598655528,40,41.12,-100.77,31.0,26.67,24.27,6.7
Hakkâri Province,0,TR,1598655451,40,37.58,44.17,15.29,15.29,12.45,1.61
Dingle,100,PH,1598655528,85,11.0,122.67,25.84,25.84,30.05,1.58
Geraldton,75,AU,1598655528,87,-28.77,114.6,9.0,9.0,6.82,2.1
Najrān,67,SA,1598655528,23,17.49,44.13,31.0,31.0,28.93,2.1
Souillac,75,MU,1598655529,73,-20.52,57.52,22.0,22.0,20.78,5.1
Taicheng,2,CN,1598655529,83,38.73,113.23,18.26,18.26,19.47,0.74
Tamandaré,97,BR,1598655529,86,-8.76,-35.1,23.74,23.74,26.03,2.89
Ilām,50,NP,1598655530,90,26.92,87.92,18.03,18.03,19.46,1.0
Katherine,6,AU,1598655530,63,-14.47,132.27,19.0,19.0,16.69,4.1
Jamālpur,43,BD,1598655530,88,24.92,89.93,26.47,26.47,30.91,2.24
Marathon,75,US,1598655530,69,44.9,-89.77,25.0,23.33,20.53,8.7
Troitsk,80,RU,1598655530,65,54.1,61.58,19.17,19.17,17.21,3.87
Ghotki,20,PK,1598655531,79,28.01,69.32,30.0,30.0,35.76,1.8
Robertsport,100,LR,1598655531,85,6.75,-11.37,24.98,24.98,25.74,5.84
Paso de Carrasco,75,UY,1598655531,93,-34.86,-56.05,16.0,15.0,14.78,2.6
Wagar,26,SD,1598655531,52,16.15,36.2,30.39,30.39,27.33,9.26
Río Cuarto,11,AR,1598655531,37,-33.13,-64.35,19.0,19.0,14.11,5.1
Bhag,3,PK,1598655531,48,29.04,67.82,33.66,33.66,35.64,3.22
Khovd,100,MN,1598655532,69,48.01,91.64,10.43,10.43,8.85,0.64
Major Isidoro,50,BR,1598655532,94,-9.53,-36.98,20.41,20.41,21.18,3.79
Sitka,75,US,1598655426,71,57.05,-135.33,14.0,14.0,9.75,5.7
Isangel,25,VU,1598655532,75,-19.55,169.27,25.85,25.85,25.93,5.91
Dovers,75,VC,1598655532,79,12.88,-61.18,29.0,29.0,31.07,6.2
Massaguet,47,TD,1598655533,80,12.48,15.44,25.1,25.1,27.34,3.07
Walvis Bay,0,NA,1598655235,71,-22.96,14.51,11.67,10.0,9.08,1.0
Pohrebyshche,0,UA,1598655533,84,49.49,29.26,12.74,12.74,12.06,1.07
Lohāru,12,IN,1598655533,63,28.45,75.82,28.93,28.93,31.85,1.93
Umluj,0,SA,1598655533,68,25.02,37.27,28.1,28.1,30.64,2.8
Parga,0,GR,1598655332,94,39.28,20.4,24.0,22.78,27.44,0.91
Uyuni,7,BO,1598655234,32,-20.46,-66.83,10.81,10.81,4.53,5.21
Cortez,40,US,1598655534,22,37.35,-108.59,31.0,25.56,22.73,6.7
Český Dub,100,CZ,1598655534,10,50.66,15.0,16.11,13.89,10.57,1.04
Salalah,90,OM,1598655246,100,17.02,54.09,24.0,24.0,28.77,1.5
Praia da Vitória,20,PT,1598655322,69,38.73,-27.07,25.0,25.0,26.49,2.43
Viedma,83,AR,1598655534,58,-40.81,-63.0,10.56,10.56,6.9,2.99
Berezovyy,45,RU,1598655535,54,51.67,135.7,15.53,15.53,14.2,0.67
Leshukonskoye,86,RU,1598655535,89,64.9,45.76,7.36,7.36,4.77,2.29
Anori,93,BR,1598655535,76,-3.77,-61.64,26.15,26.15,30.18,0.64
Nizhneangarsk,100,RU,1598655535,91,55.78,109.55,11.26,11.26,10.42,1.2
Ossora,92,RU,1598655431,75,59.24,163.07,11.28,11.28,6.08,6.44
Indramayu,51,ID,1598655535,74,-6.33,108.32,25.34,25.34,26.47,3.92
Gazojak,0,TM,1598655535,27,41.19,61.4,22.49,22.49,17.68,4.61
Lobito,86,AO,1598655536,84,-12.35,13.55,19.86,19.86,20.34,2.75
Porto-Novo,75,BJ,1598655389,83,6.5,2.6,26.0,26.0,26.84,6.2
Saint Anthony,1,US,1598655530,65,45.02,-93.22,27.22,24.44,25.06,5.7
Unnāo,40,IN,1598655536,88,26.53,80.5,27.0,27.0,30.8,3.6
Selikhino,46,RU,1598655536,77,50.37,137.5,13.53,13.53,10.09,4.82
Porto Belo,3,BR,1598655536,93,-27.16,-48.55,18.89,18.0,19.57,2.03
Kanturk,40,IE,1598655537,81,52.17,-8.9,11.67,9.44,5.72,6.2
Bukama,1,CD,1598655537,66,-9.2,25.85,22.98,22.98,24.85,0.32
Waddān,0,LY,1598655537,60,29.16,16.14,24.83,24.83,22.72,6.15
Sioux Lookout,40,CA,1598655290,77,50.1,-91.92,19.0,19.0,16.23,6.2
Zyryanka,97,RU,1598655538,72,65.75,150.85,7.83,7.83,3.97,3.4
La Rioja,90,ES,1598655539,55,42.25,-2.5,17.0,17.0,15.46,1.5
Paragominas,74,BR,1598655536,69,-2.97,-47.48,26.57,26.57,29.45,1.45
Suleja,40,NG,1598655541,94,9.18,7.18,23.0,23.0,26.64,1.5
Praia,75,CV,1598655541,88,14.92,-23.51,27.0,27.0,31.5,2.6
Benjamín Aceval,20,PY,1598655541,31,-24.97,-57.57,32.0,32.0,30.68,3.1
Henties Bay,0,NA,1598655542,89,-22.12,14.28,11.67,11.67,8.02,5.25
Yilan,75,TW,1598655542,88,24.76,121.75,28.89,28.0,35.61,0.5
Kutum,64,SD,1598655542,70,14.2,24.67,23.48,23.48,24.56,2.26
Samarai,99,PG,1598655542,86,-10.62,150.67,26.04,26.04,27.96,5.16
The Valley,20,AI,1598655542,70,18.22,-63.06,30.0,28.33,31.74,4.1
Guardiagrele,27,IT,1598655543,83,42.2,14.22,23.0,23.0,25.2,2.1
Yumen,100,CN,1598655543,49,40.28,97.2,14.66,14.66,10.47,4.12
Iracoubo,57,GF,1598655543,81,5.48,-53.2,26.79,26.79,30.58,2.27
Bairiki Village,20,KI,1598655361,66,1.33,172.98,30.0,30.0,32.69,3.6
Alappuzha,96,IN,1598655544,88,9.49,76.33,23.89,23.89,26.91,2.24
Yermakovskoye,100,RU,1598655544,94,53.28,92.4,12.38,12.38,11.23,2.29
Lafayette,1,US,1598655544,70,30.23,-92.07,30.0,29.0,33.13,2.6
Katangli,16,RU,1598655544,74,51.71,143.23,12.49,12.49,9.18,4.06
Krasnosel'kup,4,RU,1598655545,84,65.7,82.47,10.64,10.64,9.61,0.83
Hofn,23,IS,1598655545,61,64.25,-15.21,11.07,11.07,8.15,2.25
Okitipupa,100,NG,1598655545,91,6.5,4.78,23.48,23.48,27.1,1.48
Lompoc,1,US,1598655547,64,34.64,-120.46,21.67,18.0,15.91,7.2
Las Vegas,1,US,1598655513,8,36.17,-115.14,42.0,39.44,37.4,2.1
Pangody,88,RU,1598655549,83,65.85,74.49,13.03,13.03,11.93,1.72
Saint-François,80,FR,1598655360,82,46.42,3.91,15.0,15.0,14.13,2.1
Pangkalanbuun,36,ID,1598655551,97,-2.68,111.62,23.06,23.06,27.24,1.17
Raudeberg,3,NO,1598655551,84,61.99,5.14,13.33,13.33,7.99,7.97
Burnie,95,AU,1598655551,82,-41.07,145.92,11.67,11.67,9.5,2.68
Rome,40,US,1598655551,56,43.21,-75.46,23.0,21.11,22.67,0.53
La Santisima Trinidad,0,BO,1598655551,30,-14.83,-64.9,30.83,30.83,30.13,1.55
Wuda,100,CN,1598655552,31,39.5,106.71,21.82,21.82,16.56,5.61
Naze,40,JP,1598655311,89,28.37,129.48,29.0,28.0,32.69,4.6
Quelimane,0,MZ,1598655553,88,-17.88,36.89,23.0,22.78,25.92,1.5
Tevaitoa,4,PF,1598655554,77,-16.78,-151.5,24.87,24.87,22.7,8.76
Rendsburg,20,DE,1598655554,93,54.3,9.67,12.78,11.0,12.15,0.5
Caconda,0,AO,1598655554,76,-13.73,15.07,12.96,12.96,11.8,1.28
Callaway,75,US,1598655555,74,30.15,-85.57,30.56,29.44,32.65,5.1
Surab,8,PK,1598655555,34,28.49,66.26,19.65,19.65,17.85,0.51
Vostok,100,RU,1598655555,100,46.49,135.88,14.44,14.44,13.66,3.14
Fomboni,31,KM,1598655555,77,-12.28,43.74,24.56,24.56,25.33,4.36
Yatou,92,CN,1598655555,93,37.15,122.38,22.87,22.87,26.48,1.31
Khāsh,51,IR,1598655556,27,28.22,61.22,18.52,18.52,15.48,1.34
Linxia Chengguanzhen,100,CN,1598655556,81,35.6,103.21,18.52,18.52,19.77,0.63
Pacov,100,CZ,1598655556,91,49.47,15.0,15.56,15.56,16.54,0.45
Vila Velha,20,BR,1598655557,94,-20.33,-40.29,22.22,22.0,24.89,2.1
Yerbogachën,100,RU,1598655557,73,61.28,108.01,13.07,13.07,11.41,1.82
Kitgum,27,UG,1598655557,95,3.28,32.89,18.32,18.32,20.42,0.7
Fuyu,97,CN,1598655557,93,45.18,124.82,16.84,16.84,16.06,3.79
Nizwá,100,OM,1598655297,55,22.93,57.53,29.15,29.15,31.85,0.87
Sitges,100,ES,1598655558,82,41.24,1.81,23.33,20.56,24.5,0.89
Saldanha,44,ZA,1598655392,87,-33.01,17.94,8.0,8.0,5.61,2.1
Cockburn Town,40,TC,1598655290,66,21.46,-71.14,30.0,30.0,31.64,5.1
Eureka,1,US,1598655558,43,40.8,-124.16,22.22,17.78,17.5,1.34
Potsdam,100,DE,1598655558,72,52.4,13.07,19.44,16.67,16.85,2.4
Beringovskiy,100,RU,1598655513,85,63.05,179.32,10.5,10.5,5.29,6.81
Nakhon Si Thammarat,100,TH,1598655558,85,8.43,99.97,25.13,25.13,29.1,1.37
São José do Calçado,22,BR,1598655559,92,-21.03,-41.65,18.9,18.9,20.6,1.3
Bolobo,12,CD,1598655559,84,-2.17,16.23,22.56,22.56,25.35,1.1
Bodaybo,100,RU,1598655559,67,57.85,114.19,15.29,15.29,14.87,0.36
Macao,20,MO,1598655559,88,22.2,113.55,28.0,28.0,33.89,1.5
San Jose,75,US,1598655327,47,37.34,-121.89,28.89,25.0,25.86,3.6
Noumea,90,NC,1598655386,68,-22.28,166.46,22.0,22.0,19.58,6.2
Quaraí,23,BR,1598655549,92,-30.39,-56.45,19.79,19.79,20.81,2.81
Aquiraz,44,BR,1598655498,78,-3.9,-38.39,26.0,26.0,26.29,6.2
Kavaratti,100,IN,1598655561,77,10.57,72.64,27.61,27.61,29.35,5.17
Kapoeta,72,SS,1598655561,84,4.77,33.59,23.14,23.14,26.23,1.06
Marabu,40,MY,1598655561,100,4.41,114.01,24.0,23.89,29.04,1.0
Klichka,100,RU,1598655562,89,50.45,118.0,10.13,10.13,7.17,3.71
Brooks,0,CA,1598655390,26,50.58,-111.89,26.67,26.67,23.78,2.68
Bishop Auckland,95,GB,1598655562,89,54.66,-1.68,11.67,9.44,9.41,1.79
Rosarito,40,MX,1598655562,73,32.33,-117.03,26.0,25.0,24.75,6.2
Karaton,20,ID,1598655562,83,-6.34,106.1,26.11,25.0,28.19,2.6
Andros Town,20,BS,1598655562,66,24.7,-77.77,31.0,31.0,33.88,4.1
Tual,18,ID,1598655563,82,-5.67,132.75,26.31,26.31,24.38,10.24
Bundaberg,0,AU,1598655563,59,-24.85,152.35,18.0,18.0,14.79,4.6
Isla,100,PH,1598655563,78,15.89,120.3,27.07,27.07,31.77,0.69
Tapes,91,BR,1598655563,92,-30.67,-51.4,17.41,17.41,17.78,2.36
Wilmington,1,US,1598655563,62,34.23,-77.94,32.0,29.44,31.47,5.7
Araouane,28,ML,1598655564,51,18.9,-3.53,31.75,31.75,28.89,9.6
Moose Factory,1,CA,1598655564,82,51.26,-80.61,14.0,14.0,9.98,6.2
San Pedro de Macorís,11,DO,1598655564,80,18.46,-69.3,30.56,30.0,36.6,1.34
Kingisepp,98,RU,1598655276,97,59.37,28.61,11.11,11.11,10.28,1.51
Ca Mau,54,VN,1598655564,88,9.18,105.15,25.59,25.59,29.84,1.79
Ginir,17,ET,1598655565,81,7.13,40.7,15.96,15.96,14.43,3.38
Beitbridge,0,ZW,1598655565,25,-22.22,30.0,23.58,23.58,18.93,4.35
Pathein,45,MM,1598655565,87,16.78,94.73,25.63,25.63,29.36,2.41
Liaocheng,0,CN,1598655565,81,36.44,115.96,23.54,23.54,26.09,1.7
Ocampo,71,MX,1598655565,51,21.65,-101.5,22.46,22.46,20.47,3.65
Montes Claros,4,BR,1598655566,36,-16.73,-43.86,25.0,25.0,21.18,5.1
Goiânia,56,BR,1598655532,23,-16.68,-49.25,28.0,28.0,23.99,4.1
Taihe,61,CN,1598655566,90,30.87,105.38,24.48,24.48,27.82,2.5
Namatanai,73,PG,1598655566,70,-3.67,152.43,27.9,27.9,30.69,2.66
São Félix do Xingu,83,BR,1598655566,44,-6.64,-51.99,27.88,27.88,28.84,0.68
Necochea,47,AR,1598655567,85,-38.55,-58.74,10.56,10.56,9.51,0.89
Coyhaique,75,CL,1598655496,64,-45.58,-72.07,1.0,1.0,-2.31,1.0
Bose,93,IT,1598655567,96,45.46,8.01,20.0,18.89,22.28,0.45
Barranca,15,PE,1598655292,84,-10.75,-77.77,16.58,16.58,14.59,4.58
Kholmy,45,UA,1598655567,96,51.87,32.6,12.85,12.85,11.98,2.23
Lānja,100,IN,1598655567,92,16.85,73.55,23.71,23.71,27.84,1.07
Vera Cruz,40,BR,1598655568,58,-12.63,-41.03,21.28,21.28,20.3,2.59
Bathsheba,40,BB,1598655524,70,13.22,-59.52,29.0,29.0,27.71,9.3
Dāmghān,0,IR,1598655569,35,36.17,54.35,18.39,18.39,16.38,0.64
Kruisfontein,1,ZA,1598655569,84,-34.0,24.73,10.0,10.0,9.08,0.45
Umm Hājar,99,TD,1598655569,79,13.3,19.7,25.69,25.69,26.98,4.7
Miroslovești,42,RO,1598655569,21,47.15,26.65,13.33,13.33,9.61,1.11
Kununurra,7,AU,1598655570,23,-15.77,128.73,25.0,25.0,19.41,5.7
Brownwood,1,US,1598655434,20,31.71,-98.99,40.0,40.0,38.68,3.1
Matagami,75,CA,1598655570,55,49.75,-77.63,17.0,17.0,16.02,0.7
Chuzhou,17,CN,1598655570,85,32.32,118.3,26.67,26.67,30.56,2.7
Rocha,91,UY,1598655350,95,-34.48,-54.33,14.04,14.04,13.14,2.73
Bac Lieu,65,VN,1598655572,84,9.29,105.72,26.75,26.75,29.82,3.77
Grand Gaube,4,MU,1598655304,79,-20.01,57.66,20.56,20.56,21.92,1.34
Half Moon Bay,40,US,1598655405,64,37.46,-122.43,24.44,16.67,21.2,4.1
Agüimes,20,ES,1598655572,69,27.91,-15.45,25.56,24.0,17.32,14.9
Clonakilty,40,IE,1598655347,81,51.62,-8.87,11.67,11.0,6.58,6.2
Nombre de Dios,90,MX,1598655572,37,23.85,-104.23,28.0,28.0,26.43,3.1
Prince Rupert,75,CA,1598655572,72,54.32,-130.32,15.0,15.0,12.52,3.6
Kilindoni,81,TZ,1598655573,81,-7.91,39.67,24.49,24.49,24.51,5.95
Mayumba,100,GA,1598655574,89,-3.43,10.66,23.51,23.51,25.13,4.09
Goregaon,100,IN,1598655575,89,18.17,73.3,24.28,24.28,28.19,1.39
